[
  {
    "Title": "Casa da Vinci",
    "Folder": "casa_da_vinci",
    "Facebook": "1885956861671927",
    "LastUpdate": "01/12/2017",
    "location": {
      "city": "Desio",
      "country": "Italy",
      "latitude": 45.6297213,
      "longitude": 9.205164,
      "street": "Via Milano, 365",
      "zip": "20832"
    }
  },
  {
    "Title": "Il Tramonto",
    "Folder": "il_tramonto",
    "Facebook": "ristorantepizzeriailtramonto",
    "LastUpdate": "24/11/2017",
    "location": {
      "city": "Desio",
      "country": "Italy",
      "latitude": 45.619514353333,
      "longitude": 9.2160755701587,
      "street": "Via XXV Aprile, 5",
      "zip": "42124"
    }
  },
  {
    "Title": "La Teglia",
    "Folder": "la_teglia",
    "Facebook": "557802954393308",
    "LastUpdate": "10/12/2017",
    "location": {
      "city": "Desio",
      "country": "Italy",
      "latitude": 45.61844,
      "longitude": 9.19373,
      "street": "Via monte rosa 132",
      "zip": "20832"
    }
  },
  {
    "Title": "Pizzaland",
    "Folder": "pizzaland",
    "Facebook": "pizzeriadesio",
    "LastUpdate": "24/11/2017",
    "location": {
      "city": "Desio",
      "country": "Italy",
      "latitude": 45.6122299,
      "longitude": 9.20496,
      "street": "via garibaldi n.164",
      "zip": "20832"
    }
  },
  {
    "Title": "Pizzeria da Gigi",
    "Folder": "pizzeria_da_gigi",
    "Facebook": "287913778291736",
    "LastUpdate": "21/11/2017",
    "location": {
      "city": "Desio",
      "street": "Via Monsignor Cattaneo, 9",
      "zip": "20832",
      "latitude": 45.617341,
      "longitude": 9.205473
    }
  },
  {
    "Title": "Pummaro'",
    "Folder": "pummaro",
    "Facebook": "426291680797693",
    "LastUpdate": "01/12/2017",
    "location": {
      "city": "Desio",
      "country": "Italy",
      "latitude": 45.61698,
      "longitude": 9.19605,
      "street": "via Ferravilla 23",
      "zip": "20832"
    }
  },
  {
    "Title": "X Pizza",
    "Folder": "x_pizza",
    "Facebook": "XPIZZA.snc",
    "LastUpdate": "29/11/2017",
    "location": {
      "city": "Desio",
      "country": "Italy",
      "latitude": 45.625302228829,
      "longitude": 9.2071742381389,
      "street": "Corso Italia, 189",
      "zip": "20832"
    }
  }
]
